[
  {
    "name": "临江门",
    "address": "轨道交通2号线",
    "province": "重庆市",
    "city": "重庆市",
    "area": "渝中区",
    "latitude": 29.564158,
    "longitude": 106.581941,
    "uid": "f217812f15f096fb9fec2b96",
    "telephone": "",
    "overall_rating": 0,
    "comment_num": 0,
    "tag": "交通设施;地铁站",
    "type": "",
    "detail_url": "http://api.map.baidu.com/place/detail?uid=f217812f15f096fb9fec2b96&output=html&source=placeapi_v3",
    "price": "",
    "business_time": ""
  },
  {
    "name": "较场口",
    "address": "轨道交通1号线;轨道交通2号线",
    "province": "重庆市",
    "city": "重庆市",
    "area": "渝中区",
    "latitude": 29.559484,
    "longitude": 106.579425,
    "uid": "c742edf4642893beaeb22a96",
    "telephone": "",
    "overall_rating": 0,
    "comment_num": 0,
    "tag": "交通设施;地铁站",
    "type": "",
    "detail_url": "http://api.map.baidu.com/place/detail?uid=c742edf4642893beaeb22a96&output=html&source=placeapi_v3",
    "price": "",
    "business_time": ""
  },
  {
    "name": "小什字",
    "address": "轨道交通1号线;轨道交通6号线",
    "province": "重庆市",
    "city": "重庆市",
    "area": "渝中区",
    "latitude": 29.565944,
    "longitude": 106.5899,
    "uid": "b88330adbc513673ab0dd8b4",
    "telephone": "",
    "overall_rating": 0,
    "comment_num": 0,
    "tag": "交通设施;地铁站",
    "type": "",
    "detail_url": "http://api.map.baidu.com/place/detail?uid=b88330adbc513673ab0dd8b4&output=html&source=placeapi_v3",
    "price": "",
    "business_time": ""
  },
  {
    "name": "李子坝",
    "address": "轨道交通2号线",
    "province": "重庆市",
    "city": "重庆市",
    "area": "渝中区",
    "latitude": 29.558979,
    "longitude": 106.544083,
    "uid": "5a6b9ff0fb50b53e21022096",
    "telephone": "",
    "overall_rating": 0,
    "comment_num": 0,
    "tag": "交通设施;地铁站",
    "type": "",
    "detail_url": "http://api.map.baidu.com/place/detail?uid=5a6b9ff0fb50b53e21022096&output=html&source=placeapi_v3",
    "price": "",
    "business_time": ""
  },
  {
    "name": "大坪",
    "address": "轨道交通1号线;轨道交通2号线",
    "province": "重庆市",
    "city": "重庆市",
    "area": "渝中区",
    "latitude": 29.546961,
    "longitude": 106.525526,
    "uid": "08b4d6779f05a5aabfa82296",
    "telephone": "",
    "overall_rating": 0,
    "comment_num": 0,
    "tag": "交通设施;地铁站",
    "type": "",
    "detail_url": "http://api.map.baidu.com/place/detail?uid=08b4d6779f05a5aabfa82296&output=html&source=placeapi_v3",
    "price": "",
    "business_time": ""
  },
  {
    "name": "七星岗",
    "address": "轨道交通10号线;轨道交通1号线",
    "province": "重庆市",
    "city": "重庆市",
    "area": "渝中区",
    "latitude": 29.561505,
    "longitude": 106.568856,
    "uid": "9115b9b39185edc0cac3db41",
    "telephone": "",
    "overall_rating": 0,
    "comment_num": 0,
    "tag": "交通设施;地铁站",
    "type": "",
    "detail_url": "http://api.map.baidu.com/place/detail?uid=9115b9b39185edc0cac3db41&output=html&source=placeapi_v3",
    "price": "",
    "business_time": ""
  },
  {
    "name": "大礼堂",
    "address": "轨道交通10号线",
    "province": "重庆市",
    "city": "重庆市",
    "area": "渝中区",
    "latitude": 29.568041,
    "longitude": 106.562225,
    "uid": "5ce47dee6cf9df8603ff2d5d",
    "telephone": "",
    "overall_rating": 0,
    "comment_num": 0,
    "tag": "交通设施;地铁站",
    "type": "",
    "detail_url": "http://api.map.baidu.com/place/detail?uid=5ce47dee6cf9df8603ff2d5d&output=html&source=placeapi_v3",
    "price": "",
    "business_time": ""
  },
  {
    "name": "朝天门",
    "address": "轨道交通1号线",
    "province": "重庆市",
    "city": "重庆市",
    "area": "渝中区",
    "latitude": 29.570108,
    "longitude": 106.592531,
    "uid": "72c25fe688bfb7329f09f768",
    "telephone": "",
    "overall_rating": 0,
    "comment_num": 0,
    "tag": "交通设施;地铁站",
    "type": "",
    "detail_url": "http://api.map.baidu.com/place/detail?uid=72c25fe688bfb7329f09f768&output=html&source=placeapi_v3",
    "price": "",
    "business_time": ""
  },
  {
    "name": "牛角沱",
    "address": "轨道交通2号线;轨道交通3号线",
    "province": "重庆市",
    "city": "重庆市",
    "area": "渝中区",
    "latitude": 29.565973,
    "longitude": 106.549108,
    "uid": "d70f4a887af77d1e8d772796",
    "telephone": "",
    "overall_rating": 0,
    "comment_num": 0,
    "tag": "交通设施;地铁站",
    "type": "",
    "detail_url": "http://api.map.baidu.com/place/detail?uid=d70f4a887af77d1e8d772796&output=html&source=placeapi_v3",
    "price": "",
    "business_time": ""
  },
  {
    "name": "红岩村",
    "address": "轨道交通5号线;轨道交通9号线",
    "province": "重庆市",
    "city": "重庆市",
    "area": "渝中区",
    "latitude": 29.556352,
    "longitude": 106.500238,
    "uid": "dd922312f5666375eddfcae2",
    "telephone": "",
    "overall_rating": 0,
    "comment_num": 0,
    "tag": "交通设施;地铁站",
    "type": "",
    "detail_url": "http://api.map.baidu.com/place/detail?uid=dd922312f5666375eddfcae2&output=html&source=placeapi_v3",
    "price": "",
    "business_time": ""
  },
  {
    "name": "化龙桥",
    "address": "轨道交通9号线",
    "province": "重庆市",
    "city": "重庆市",
    "area": "渝中区",
    "latitude": 29.555819,
    "longitude": 106.525316,
    "uid": "97256dfc8405d38495ca07bb",
    "telephone": "",
    "overall_rating": 0,
    "comment_num": 0,
    "tag": "交通设施;地铁站",
    "type": "",
    "detail_url": "http://api.map.baidu.com/place/detail?uid=97256dfc8405d38495ca07bb&output=html&source=placeapi_v3",
    "price": "",
    "business_time": ""
  },
  {
    "name": "曾家岩",
    "address": "轨道交通10号线;轨道交通2号线",
    "province": "重庆市",
    "city": "重庆市",
    "area": "渝中区",
    "latitude": 29.572428,
    "longitude": 106.556474,
    "uid": "707c3104036cdcb5b54f541c",
    "telephone": "",
    "overall_rating": 0,
    "comment_num": 0,
    "tag": "交通设施;地铁站",
    "type": "",
    "detail_url": "http://api.map.baidu.com/place/detail?uid=707c3104036cdcb5b54f541c&output=html&source=placeapi_v3",
    "price": "",
    "business_time": ""
  },
  {
    "name": "富华路",
    "address": "轨道交通18号线;轨道交通9号线",
    "province": "重庆市",
    "city": "重庆市",
    "area": "渝中区",
    "latitude": 29.55668,
    "longitude": 106.510485,
    "uid": "8af8fe722fe9d9b54207c17c",
    "telephone": "",
    "overall_rating": 0,
    "comment_num": 0,
    "tag": "交通设施;地铁站",
    "type": "",
    "detail_url": "http://api.map.baidu.com/place/detail?uid=8af8fe722fe9d9b54207c17c&output=html&source=placeapi_v3",
    "price": "",
    "business_time": ""
  },
  {
    "name": "黄花园",
    "address": "轨道交通2号线",
    "province": "重庆市",
    "city": "重庆市",
    "area": "渝中区",
    "latitude": 29.569567,
    "longitude": 106.571595,
    "uid": "9dccf0f710b5a7a511882496",
    "telephone": "",
    "overall_rating": 0,
    "comment_num": 0,
    "tag": "交通设施;地铁站",
    "type": "",
    "detail_url": "http://api.map.baidu.com/place/detail?uid=9dccf0f710b5a7a511882496&output=html&source=placeapi_v3",
    "price": "",
    "business_time": ""
  },
  {
    "name": "大溪沟",
    "address": "轨道交通2号线",
    "province": "重庆市",
    "city": "重庆市",
    "area": "渝中区",
    "latitude": 29.572421,
    "longitude": 106.565022,
    "uid": "ed14f5b221eb29c1c4f02596",
    "telephone": "",
    "overall_rating": 0,
    "comment_num": 0,
    "tag": "交通设施;地铁站",
    "type": "",
    "detail_url": "http://api.map.baidu.com/place/detail?uid=ed14f5b221eb29c1c4f02596&output=html&source=placeapi_v3",
    "price": "",
    "business_time": ""
  },
  {
    "name": "佛图关",
    "address": "轨道交通2号线",
    "province": "重庆市",
    "city": "重庆市",
    "area": "渝中区",
    "latitude": 29.555334,
    "longitude": 106.537897,
    "uid": "8e131e573370194b9de32196",
    "telephone": "",
    "overall_rating": 0,
    "comment_num": 0,
    "tag": "交通设施;地铁站",
    "type": "",
    "detail_url": "http://api.map.baidu.com/place/detail?uid=8e131e573370194b9de32196&output=html&source=placeapi_v3",
    "price": "",
    "business_time": ""
  },
  {
    "name": "十八梯",
    "address": "轨道交通18号线渝中延伸段",
    "province": "重庆市",
    "city": "重庆市",
    "area": "渝中区",
    "latitude": 29.55549,
    "longitude": 106.576664,
    "uid": "854a68cba32dd251ec74f8c3",
    "telephone": "",
    "overall_rating": 0,
    "comment_num": 0,
    "tag": "交通设施;地铁站",
    "type": "",
    "detail_url": "http://api.map.baidu.com/place/detail?uid=854a68cba32dd251ec74f8c3&output=html&source=placeapi_v3",
    "price": "",
    "business_time": ""
  },
  {
    "name": "重庆医科大学",
    "address": "轨道交通27号线",
    "province": "重庆市",
    "city": "重庆市",
    "area": "渝中区",
    "latitude": 29.540548,
    "longitude": 106.517955,
    "uid": "69244825ad1b17cbc91b95fe",
    "telephone": "",
    "overall_rating": 0,
    "comment_num": 0,
    "tag": "交通设施;地铁站",
    "type": "",
    "detail_url": "http://api.map.baidu.com/place/detail?uid=69244825ad1b17cbc91b95fe&output=html&source=placeapi_v3",
    "price": "",
    "business_time": ""
  },
  {
    "name": "两路口",
    "address": "轨道交通1号线;轨道交通3号线",
    "province": "重庆市",
    "city": "重庆市",
    "area": "渝中区",
    "latitude": 29.558997,
    "longitude": 106.55534,
    "uid": "ecd04ec935fbae831d580096",
    "telephone": "",
    "overall_rating": 0,
    "comment_num": 0,
    "tag": "交通设施;地铁站",
    "type": "",
    "detail_url": "http://api.map.baidu.com/place/detail?uid=ecd04ec935fbae831d580096&output=html&source=placeapi_v3",
    "price": "",
    "business_time": ""
  },
  {
    "name": "石油路",
    "address": "轨道交通1号线",
    "province": "重庆市",
    "city": "重庆市",
    "area": "渝中区",
    "latitude": 29.5439,
    "longitude": 106.515073,
    "uid": "fa294658bdeb6544e0110396",
    "telephone": "",
    "overall_rating": 0,
    "comment_num": 0,
    "tag": "交通设施;地铁站",
    "type": "",
    "detail_url": "http://api.map.baidu.com/place/detail?uid=fa294658bdeb6544e0110396&output=html&source=placeapi_v3",
    "price": "",
    "business_time": ""
  },
  {
    "name": "鹅岭",
    "address": "轨道交通1号线",
    "province": "重庆市",
    "city": "重庆市",
    "area": "渝中区",
    "latitude": 29.554026,
    "longitude": 106.540418,
    "uid": "7f2ad0fc28cd251103ec0196",
    "telephone": "",
    "overall_rating": 0,
    "comment_num": 0,
    "tag": "交通设施;地铁站",
    "type": "",
    "detail_url": "http://api.map.baidu.com/place/detail?uid=7f2ad0fc28cd251103ec0196&output=html&source=placeapi_v3",
    "price": "",
    "business_time": ""
  },
  {
    "name": "七星岗",
    "address": "轨道交通18号线渝中延伸段",
    "province": "重庆市",
    "city": "重庆市",
    "area": "渝中区",
    "latitude": 29.561306,
    "longitude": 106.56975,
    "uid": "88488f6c8f3af027636858ba",
    "telephone": "",
    "overall_rating": 0,
    "comment_num": 0,
    "tag": "交通设施;地铁站",
    "type": "",
    "detail_url": "http://api.map.baidu.com/place/detail?uid=88488f6c8f3af027636858ba&output=html&source=placeapi_v3",
    "price": "",
    "business_time": ""
  },
  {
    "name": "小什字",
    "address": "轨道交通18号线渝中延伸段",
    "province": "重庆市",
    "city": "重庆市",
    "area": "渝中区",
    "latitude": 29.566232,
    "longitude": 106.589954,
    "uid": "f37dc55025b819b0fbf0cbac",
    "telephone": "",
    "overall_rating": 0,
    "comment_num": 0,
    "tag": "交通设施;地铁站",
    "type": "",
    "detail_url": "http://api.map.baidu.com/place/detail?uid=f37dc55025b819b0fbf0cbac&output=html&source=placeapi_v3",
    "price": "",
    "business_time": ""
  },
  {
    "name": "凯旋路",
    "address": "轨道交通18号线渝中延伸段",
    "province": "重庆市",
    "city": "重庆市",
    "area": "渝中区",
    "latitude": 29.558786,
    "longitude": 106.587702,
    "uid": "e5886f80c053a81d626858c2",
    "telephone": "",
    "overall_rating": 0,
    "comment_num": 0,
    "tag": "交通设施;地铁站",
    "type": "",
    "detail_url": "http://api.map.baidu.com/place/detail?uid=e5886f80c053a81d626858c2&output=html&source=placeapi_v3",
    "price": "",
    "business_time": ""
  },
  {
    "name": "黄沙溪",
    "address": "轨道交通18号线渝中延伸段",
    "province": "重庆市",
    "city": "重庆市",
    "area": "渝中区",
    "latitude": 29.540267,
    "longitude": 106.529851,
    "uid": "9e9b252aa36804c2bfa82214",
    "telephone": "",
    "overall_rating": 0,
    "comment_num": 0,
    "tag": "交通设施;地铁站",
    "type": "",
    "detail_url": "http://api.map.baidu.com/place/detail?uid=9e9b252aa36804c2bfa82214&output=html&source=placeapi_v3",
    "price": "",
    "business_time": ""
  },
  {
    "name": "菜袁路",
    "address": "轨道交通18号线渝中延伸段",
    "province": "重庆市",
    "city": "重庆市",
    "area": "渝中区",
    "latitude": 29.544271,
    "longitude": 106.537293,
    "uid": "9b935d5804bb3d97c8213d32",
    "telephone": "",
    "overall_rating": 0,
    "comment_num": 0,
    "tag": "交通设施;地铁站",
    "type": "",
    "detail_url": "http://api.map.baidu.com/place/detail?uid=9b935d5804bb3d97c8213d32&output=html&source=placeapi_v3",
    "price": "",
    "business_time": ""
  },
  {
    "name": "富华路",
    "address": "轨道交通18号线渝中延伸段",
    "province": "重庆市",
    "city": "重庆市",
    "area": "渝中区",
    "latitude": 29.55674,
    "longitude": 106.509744,
    "uid": "70df8167d325b06c4054d7c0",
    "telephone": "",
    "overall_rating": 0,
    "comment_num": 0,
    "tag": "交通设施;地铁站",
    "type": "",
    "detail_url": "http://api.map.baidu.com/place/detail?uid=70df8167d325b06c4054d7c0&output=html&source=placeapi_v3",
    "price": "",
    "business_time": ""
  },
  {
    "name": "大坪西",
    "address": "轨道交通18号线渝中延伸段",
    "province": "重庆市",
    "city": "重庆市",
    "area": "渝中区",
    "latitude": 29.546436,
    "longitude": 106.521489,
    "uid": "ddc941bd1959521f0482c2bd",
    "telephone": "",
    "overall_rating": 0,
    "comment_num": 0,
    "tag": "交通设施;地铁站",
    "type": "",
    "detail_url": "http://api.map.baidu.com/place/detail?uid=ddc941bd1959521f0482c2bd&output=html&source=placeapi_v3",
    "price": "",
    "business_time": ""
  },
  {
    "name": "重庆站",
    "address": "轨道交通18号线渝中延伸段",
    "province": "重庆市",
    "city": "重庆市",
    "area": "渝中区",
    "latitude": 29.557122,
    "longitude": 106.554207,
    "uid": "d6ec4c8f48f8f6ad33f71d6c",
    "telephone": "",
    "overall_rating": 0,
    "comment_num": 0,
    "tag": "交通设施;地铁站",
    "type": "",
    "detail_url": "http://api.map.baidu.com/place/detail?uid=d6ec4c8f48f8f6ad33f71d6c&output=html&source=placeapi_v3",
    "price": "",
    "business_time": ""
  },
  {
    "name": "重庆站",
    "address": "轨道交通27号线",
    "province": "重庆市",
    "city": "重庆市",
    "area": "渝中区",
    "latitude": 29.55357,
    "longitude": 106.553135,
    "uid": "6f7107fd4ee5e0e33a04b1c0",
    "telephone": "",
    "overall_rating": 0,
    "comment_num": 0,
    "tag": "交通设施;地铁站",
    "type": "",
    "detail_url": "http://api.map.baidu.com/place/detail?uid=6f7107fd4ee5e0e33a04b1c0&output=html&source=placeapi_v3",
    "price": "",
    "business_time": ""
  },
  {
    "name": "七星岗地铁站-1口",
    "address": "",
    "province": "重庆市",
    "city": "重庆市",
    "area": "渝中区",
    "latitude": 29.56169,
    "longitude": 106.570229,
    "uid": "97d200032ed055452fe67b9c",
    "telephone": "",
    "overall_rating": 0,
    "comment_num": 0,
    "tag": "出入口;其他",
    "type": "",
    "detail_url": "http://map.baidu.com/",
    "price": "",
    "business_time": ""
  },
  {
    "name": "小什字地铁站-6口",
    "address": "",
    "province": "重庆市",
    "city": "重庆市",
    "area": "渝中区",
    "latitude": 29.56659,
    "longitude": 106.588637,
    "uid": "e80ac65c2ee6214dfe0eb08d",
    "telephone": "",
    "overall_rating": 0,
    "comment_num": 0,
    "tag": "出入口;其他",
    "type": "",
    "detail_url": "http://map.baidu.com/",
    "price": "",
    "business_time": ""
  },
  {
    "name": "临江门地铁站-2西南珠宝城口",
    "address": "",
    "province": "重庆市",
    "city": "重庆市",
    "area": "渝中区",
    "latitude": 29.565396,
    "longitude": 106.580769,
    "uid": "488898e5e28994c0df1e523a",
    "telephone": "",
    "overall_rating": 0,
    "comment_num": 0,
    "tag": "出入口;其他",
    "type": "",
    "detail_url": "http://map.baidu.com/",
    "price": "",
    "business_time": ""
  },
  {
    "name": "朝天门地铁站-4口",
    "address": "",
    "province": "重庆市",
    "city": "重庆市",
    "area": "渝中区",
    "latitude": 29.569628,
    "longitude": 106.591763,
    "uid": "57f82a4d9e909de59c9d68a9",
    "telephone": "",
    "overall_rating": 0,
    "comment_num": 0,
    "tag": "出入口;其他",
    "type": "",
    "detail_url": "http://map.baidu.com/",
    "price": "",
    "business_time": ""
  },
  {
    "name": "较场口地铁站-6A口",
    "address": "",
    "province": "重庆市",
    "city": "重庆市",
    "area": "渝中区",
    "latitude": 29.559747,
    "longitude": 106.580328,
    "uid": "a6f0e03cb9dc18364e776efe",
    "telephone": "",
    "overall_rating": 0,
    "comment_num": 0,
    "tag": "出入口;其他",
    "type": "",
    "detail_url": "http://map.baidu.com/",
    "price": "",
    "business_time": ""
  },
  {
    "name": "大坪地铁站-5口",
    "address": "",
    "province": "重庆市",
    "city": "重庆市",
    "area": "渝中区",
    "latitude": 29.5482,
    "longitude": 106.526671,
    "uid": "92d55ddb13f81fae2202628a",
    "telephone": "",
    "overall_rating": 0,
    "comment_num": 0,
    "tag": "出入口;其他",
    "type": "",
    "detail_url": "http://map.baidu.com/",
    "price": "",
    "business_time": ""
  },
  {
    "name": "李子坝地铁站-1口",
    "address": "",
    "province": "重庆市",
    "city": "重庆市",
    "area": "渝中区",
    "latitude": 29.558991,
    "longitude": 106.543952,
    "uid": "e0224452b994ff92fbf0cbb1",
    "telephone": "",
    "overall_rating": 0,
    "comment_num": 0,
    "tag": "出入口;其他",
    "type": "",
    "detail_url": "http://map.baidu.com/",
    "price": "",
    "business_time": ""
  },
  {
    "name": "美豪丽致酒店(重庆李子坝两路口地铁站店)",
    "address": "两路口中山三路128号",
    "province": "重庆市",
    "city": "重庆市",
    "area": "渝中区",
    "latitude": 29.562769,
    "longitude": 106.556638,
    "uid": "e396eacf3fca51144351c069",
    "telephone": "(023)63927666",
    "overall_rating": 4.6,
    "comment_num": 64,
    "tag": "酒店",
    "type": "hotel",
    "detail_url": "http://api.map.baidu.com/place/detail?uid=e396eacf3fca51144351c069&output=html&source=placeapi_v3",
    "price": "",
    "business_time": ""
  },
  {
    "name": "重庆时代广场(出入口通往地铁)",
    "address": "重庆市渝中区解放碑邹容路100号重庆时代广场B2",
    "province": "重庆市",
    "city": "重庆市",
    "area": "渝中区",
    "latitude": 29.564186,
    "longitude": 106.58305,
    "uid": "a6ee840fe1a7113575e5b638",
    "telephone": "",
    "overall_rating": 0,
    "comment_num": 0,
    "tag": "出入口",
    "type": "life",
    "detail_url": "http://api.map.baidu.com/place/detail?uid=a6ee840fe1a7113575e5b638&output=html&source=placeapi_v3",
    "price": "",
    "business_time": ""
  },
  {
    "name": "李子坝地铁站-2口",
    "address": "",
    "province": "重庆市",
    "city": "重庆市",
    "area": "渝中区",
    "latitude": 29.559086,
    "longitude": 106.544461,
    "uid": "90f378cc0b59455ff92d61dd",
    "telephone": "",
    "overall_rating": 0,
    "comment_num": 0,
    "tag": "出入口;其他",
    "type": "",
    "detail_url": "http://map.baidu.com/",
    "price": "",
    "business_time": ""
  },
  {
    "name": "威尔汀酒店(重庆解放碑十八梯店)",
    "address": "解放碑中兴228号路美丽之冠26-9",
    "province": "重庆市",
    "city": "重庆市",
    "area": "渝中区",
    "latitude": 29.557443,
    "longitude": 106.576256,
    "uid": "01e6e6db493ddf0838221c0b",
    "telephone": "19923018853",
    "overall_rating": 4.2,
    "comment_num": 40,
    "tag": "酒店",
    "type": "hotel",
    "detail_url": "http://api.map.baidu.com/place/detail?uid=01e6e6db493ddf0838221c0b&output=html&source=placeapi_v3",
    "price": "",
    "business_time": ""
  },
  {
    "name": "维尔斯酒店(重庆两路口鹅岭轻轨站店)",
    "address": "下徐家坡59号中核岭寓7楼712",
    "province": "重庆市",
    "city": "重庆市",
    "area": "渝中区",
    "latitude": 29.552881,
    "longitude": 106.543279,
    "uid": "2afdb5dbb84e0c2479b55c34",
    "telephone": "18875067929",
    "overall_rating": 4.7,
    "comment_num": 50,
    "tag": "酒店",
    "type": "hotel",
    "detail_url": "http://api.map.baidu.com/place/detail?uid=2afdb5dbb84e0c2479b55c34&output=html&source=placeapi_v3",
    "price": "",
    "business_time": ""
  },
  {
    "name": "云境雅阁(两路口地铁站店)",
    "address": "长江一路1号中华广场31楼3号",
    "province": "重庆市",
    "city": "重庆市",
    "area": "渝中区",
    "latitude": 29.558363,
    "longitude": 106.555293,
    "uid": "8da9af05d7238d770a5cb3b8",
    "telephone": "17623545981",
    "overall_rating": 4.7,
    "comment_num": 0,
    "tag": "酒店",
    "type": "hotel",
    "detail_url": "http://api.map.baidu.com/place/detail?uid=8da9af05d7238d770a5cb3b8&output=html&source=placeapi_v3",
    "price": "",
    "business_time": ""
  },
  {
    "name": "如家精选酒店(重庆大坪龙湖时代天街店)",
    "address": "大坪正街116号",
    "province": "重庆市",
    "city": "重庆市",
    "area": "渝中区",
    "latitude": 29.546611,
    "longitude": 106.520988,
    "uid": "f9e8ed44b90c831522f01772",
    "telephone": "(023)86586688",
    "overall_rating": 4.8,
    "comment_num": 34,
    "tag": "酒店",
    "type": "hotel",
    "detail_url": "http://api.map.baidu.com/place/detail?uid=f9e8ed44b90c831522f01772&output=html&source=placeapi_v3",
    "price": "",
    "business_time": ""
  },
  {
    "name": "战时洞子老火锅(李子坝轻轨穿楼店)",
    "address": "李子坝正街（李子坝地铁站1号口出来右转步行280米）",
    "province": "重庆市",
    "city": "重庆市",
    "area": "渝中区",
    "latitude": 29.562776,
    "longitude": 106.547147,
    "uid": "3573657bfe93ef009b005050",
    "telephone": "023-63315028,13110101192",
    "overall_rating": 4.1,
    "comment_num": 3,
    "tag": "美食;中餐厅",
    "type": "cater",
    "detail_url": "http://api.map.baidu.com/place/detail?uid=3573657bfe93ef009b005050&output=html&source=placeapi_v3",
    "price": 61.0,
    "business_time": ""
  },
  {
    "name": "锦江之星(重庆鹅岭文创二厂酒店)",
    "address": "大坪长江一路68号",
    "province": "重庆市",
    "city": "重庆市",
    "area": "渝中区",
    "latitude": 29.55362,
    "longitude": 106.537768,
    "uid": "14dddc2fdc5e705df7e73b13",
    "telephone": "(023)63611285,(023)63616000",
    "overall_rating": 4.4,
    "comment_num": 82,
    "tag": "酒店",
    "type": "hotel",
    "detail_url": "http://api.map.baidu.com/place/detail?uid=14dddc2fdc5e705df7e73b13&output=html&source=placeapi_v3",
    "price": "",
    "business_time": ""
  },
  {
    "name": "月友轻奢酒店(重庆解放碑洪崖洞店)",
    "address": "解放碑筷子街2号人寿大厦1楼",
    "province": "重庆市",
    "city": "重庆市",
    "area": "渝中区",
    "latitude": 29.565986,
    "longitude": 106.588908,
    "uid": "d5743297647aa9d29e9d6872",
    "telephone": "(023)63708988",
    "overall_rating": 4.1,
    "comment_num": 51,
    "tag": "酒店",
    "type": "hotel",
    "detail_url": "http://api.map.baidu.com/place/detail?uid=d5743297647aa9d29e9d6872&output=html&source=placeapi_v3",
    "price": "",
    "business_time": ""
  },
  {
    "name": "鹅岭地铁站店",
    "address": "重庆市渝中区两路口街道长江一路69号5-1",
    "province": "重庆市",
    "city": "重庆市",
    "area": "渝中区",
    "latitude": 29.554017,
    "longitude": 106.539997,
    "uid": "5f3c758ed1e9563e9d82eaed",
    "telephone": "",
    "overall_rating": 0,
    "comment_num": 0,
    "tag": "交通设施",
    "type": "life",
    "detail_url": "http://api.map.baidu.com/place/detail?uid=5f3c758ed1e9563e9d82eaed&output=html&source=placeapi_v3",
    "price": "",
    "business_time": ""
  },
  {
    "name": "梵夕酒店(重庆企业天地化龙桥地铁店)",
    "address": "富华路10号翡翠云阶公寓4栋C座",
    "province": "重庆市",
    "city": "重庆市",
    "area": "渝中区",
    "latitude": 29.553633,
    "longitude": 106.523786,
    "uid": "15728eae1e6e6a88d72ce2cf",
    "telephone": "18290252070",
    "overall_rating": 4.6,
    "comment_num": 0,
    "tag": "酒店",
    "type": "hotel",
    "detail_url": "http://api.map.baidu.com/place/detail?uid=15728eae1e6e6a88d72ce2cf&output=html&source=placeapi_v3",
    "price": "",
    "business_time": ""
  },
  {
    "name": "长江索道步行解放碑洪崖洞好吃街地铁口三居",
    "address": "重庆市渝中区解放碑街道新华路142号-1",
    "province": "重庆市",
    "city": "重庆市",
    "area": "渝中区",
    "latitude": 29.564303,
    "longitude": 106.588415,
    "uid": "f7cd72b86906aa77213bf2a2",
    "telephone": "",
    "overall_rating": 0,
    "comment_num": 0,
    "tag": "生活服务;其他",
    "type": "life",
    "detail_url": "http://api.map.baidu.com/place/detail?uid=f7cd72b86906aa77213bf2a2&output=html&source=placeapi_v3",
    "price": "",
    "business_time": ""
  },
  {
    "name": "重庆牛角沱地铁站店",
    "address": "重庆市渝中区中山四路渝中大厦",
    "province": "重庆市",
    "city": "重庆市",
    "area": "渝中区",
    "latitude": 29.567409,
    "longitude": 106.553098,
    "uid": "f3220c29e64f45f94f6d465c",
    "telephone": "",
    "overall_rating": 0,
    "comment_num": 0,
    "tag": "交通设施",
    "type": "life",
    "detail_url": "http://api.map.baidu.com/place/detail?uid=f3220c29e64f45f94f6d465c&output=html&source=placeapi_v3",
    "price": "",
    "business_time": ""
  },
  {
    "name": "锦韵酒店(重庆解放碑店)",
    "address": "重庆市渝中区捍卫路32号临华大厦2号楼1楼",
    "province": "重庆市",
    "city": "重庆市",
    "area": "渝中区",
    "latitude": 29.563199,
    "longitude": 106.56804,
    "uid": "6edcb40f46492304a00464cd",
    "telephone": "13290090567",
    "overall_rating": 4.3,
    "comment_num": 37,
    "tag": "酒店",
    "type": "hotel",
    "detail_url": "http://api.map.baidu.com/place/detail?uid=6edcb40f46492304a00464cd&output=html&source=placeapi_v3",
    "price": "",
    "business_time": ""
  },
  {
    "name": "轻轨上城-16号楼",
    "address": "重庆市渝中区长江支路25号附1号(大坪地铁站5号口步行60米)",
    "province": "重庆市",
    "city": "重庆市",
    "area": "渝中区",
    "latitude": 29.548167,
    "longitude": 106.526804,
    "uid": "5f4d80b4a0e053fff4231085",
    "telephone": "",
    "overall_rating": 0,
    "comment_num": 0,
    "tag": "房地产;内部楼栋",
    "type": "house",
    "detail_url": "http://api.map.baidu.com/place/detail?uid=5f4d80b4a0e053fff4231085&output=html&source=placeapi_v3",
    "price": "",
    "business_time": ""
  },
  {
    "name": "重庆锦舍酒店",
    "address": "重庆市渝中区大坪支路21号康定大厦F3",
    "province": "重庆市",
    "city": "重庆市",
    "area": "渝中区",
    "latitude": 29.544402,
    "longitude": 106.520593,
    "uid": "ffa7a851d8a7b7ef1811d545",
    "telephone": "(023)68006099",
    "overall_rating": 3.9,
    "comment_num": 114,
    "tag": "酒店",
    "type": "hotel",
    "detail_url": "http://api.map.baidu.com/place/detail?uid=ffa7a851d8a7b7ef1811d545&output=html&source=placeapi_v3",
    "price": "",
    "business_time": ""
  },
  {
    "name": "重庆解放碑地铁口洪崖洞江景民宿公寓",
    "address": "重庆市渝中区解放碑街道新华路215号",
    "province": "重庆市",
    "city": "重庆市",
    "area": "渝中区",
    "latitude": 29.563398,
    "longitude": 106.58888,
    "uid": "641b8239754343b1d2f49e15",
    "telephone": "",
    "overall_rating": 5.0,
    "comment_num": 2,
    "tag": "酒店;民宿",
    "type": "hotel",
    "detail_url": "http://api.map.baidu.com/place/detail?uid=641b8239754343b1d2f49e15&output=html&source=placeapi_v3",
    "price": "",
    "business_time": ""
  },
  {
    "name": "重庆渝中区大坪龙湖时代天街套房地铁直达解放碑公寓",
    "address": "重庆市渝中区石油路地铁站星河",
    "province": "重庆市",
    "city": "重庆市",
    "area": "渝中区",
    "latitude": 29.542311,
    "longitude": 106.516199,
    "uid": "27dd95f3edbe7ed6c156acf0",
    "telephone": "",
    "overall_rating": 4.6,
    "comment_num": 0,
    "tag": "酒店;公寓式酒店",
    "type": "hotel",
    "detail_url": "http://api.map.baidu.com/place/detail?uid=27dd95f3edbe7ed6c156acf0&output=html&source=placeapi_v3",
    "price": "",
    "business_time": ""
  },
  {
    "name": "天友大酒店(重庆两路口地铁站儿童医院店)",
    "address": "重庆市渝中区中山三路121号负1楼、7楼、13楼至19楼",
    "province": "重庆市",
    "city": "重庆市",
    "area": "渝中区",
    "latitude": 29.559841,
    "longitude": 106.555661,
    "uid": "6ed3083af16519ae2b3a9f19",
    "telephone": "(023)63859888",
    "overall_rating": 4.4,
    "comment_num": 45,
    "tag": "酒店",
    "type": "hotel",
    "detail_url": "http://api.map.baidu.com/place/detail?uid=6ed3083af16519ae2b3a9f19&output=html&source=placeapi_v3",
    "price": "",
    "business_time": ""
  },
  {
    "name": "重庆富佳园酒店(两路口地铁站店)",
    "address": "菜袁路12号",
    "province": "重庆市",
    "city": "重庆市",
    "area": "渝中区",
    "latitude": 29.554402,
    "longitude": 106.554948,
    "uid": "3688c126c2e9130c3ae4a6ed",
    "telephone": "(023)63627333",
    "overall_rating": 4.2,
    "comment_num": 1,
    "tag": "酒店;星级酒店",
    "type": "hotel",
    "detail_url": "http://api.map.baidu.com/place/detail?uid=3688c126c2e9130c3ae4a6ed&output=html&source=placeapi_v3",
    "price": "",
    "business_time": ""
  },
  {
    "name": "全季酒店(重庆解放碑步行街七星岗地铁站店)",
    "address": "重庆市渝中区民生路329号渝海大厦7-10楼",
    "province": "重庆市",
    "city": "重庆市",
    "area": "渝中区",
    "latitude": 29.562854,
    "longitude": 106.575401,
    "uid": "ecb5e6b1eb5156c302294faa",
    "telephone": "19922861533",
    "overall_rating": 4.7,
    "comment_num": 53,
    "tag": "酒店",
    "type": "hotel",
    "detail_url": "http://api.map.baidu.com/place/detail?uid=ecb5e6b1eb5156c302294faa&output=html&source=placeapi_v3",
    "price": "",
    "business_time": ""
  },
  {
    "name": "莎维纳酒店(重庆解放碑步行街七星岗地铁站店)",
    "address": "七星岗街道兴隆街133号附4号",
    "province": "重庆市",
    "city": "重庆市",
    "area": "渝中区",
    "latitude": 29.560043,
    "longitude": 106.568509,
    "uid": "f4d67cd4d4fc3d34d3ff2391",
    "telephone": "13308396365",
    "overall_rating": 4.7,
    "comment_num": 37,
    "tag": "酒店;其他",
    "type": "hotel",
    "detail_url": "http://api.map.baidu.com/place/detail?uid=f4d67cd4d4fc3d34d3ff2391&output=html&source=placeapi_v3",
    "price": "",
    "business_time": ""
  },
  {
    "name": "格林东方酒店(重庆解放碑七星岗地铁站店)",
    "address": "中山一路212号1-8层",
    "province": "重庆市",
    "city": "重庆市",
    "area": "渝中区",
    "latitude": 29.56199,
    "longitude": 106.567887,
    "uid": "e79b1b6f7757502217b54bed",
    "telephone": "18983695316",
    "overall_rating": 4.6,
    "comment_num": 40,
    "tag": "酒店",
    "type": "hotel",
    "detail_url": "http://api.map.baidu.com/place/detail?uid=e79b1b6f7757502217b54bed&output=html&source=placeapi_v3",
    "price": "",
    "business_time": ""
  },
  {
    "name": "重庆珀丽快捷酒店(解放碑七星岗地铁站店)",
    "address": "捍卫路6号临华大厦3-5号",
    "province": "重庆市",
    "city": "重庆市",
    "area": "渝中区",
    "latitude": 29.562141,
    "longitude": 106.568416,
    "uid": "4019a0c117265a79eb1e9777",
    "telephone": "(023)68802973",
    "overall_rating": 4.6,
    "comment_num": 2,
    "tag": "酒店",
    "type": "hotel",
    "detail_url": "http://api.map.baidu.com/place/detail?uid=4019a0c117265a79eb1e9777&output=html&source=placeapi_v3",
    "price": "",
    "business_time": ""
  },
  {
    "name": "汉庭酒店(重庆李子坝牛角沱地铁站店)",
    "address": "重庆市渝中区嘉陵桥西村2号",
    "province": "重庆市",
    "city": "重庆市",
    "area": "渝中区",
    "latitude": 29.566508,
    "longitude": 106.552314,
    "uid": "2c0bd6c55eaeaeb342ab9ab9",
    "telephone": "(023)86576777",
    "overall_rating": 4.8,
    "comment_num": 69,
    "tag": "酒店",
    "type": "hotel",
    "detail_url": "http://api.map.baidu.com/place/detail?uid=2c0bd6c55eaeaeb342ab9ab9&output=html&source=placeapi_v3",
    "price": "",
    "business_time": ""
  },
  {
    "name": "城市便捷酒店(重庆两路口地铁站店)",
    "address": "两路口地铁站重庆村1号",
    "province": "重庆市",
    "city": "重庆市",
    "area": "渝中区",
    "latitude": 29.56081,
    "longitude": 106.555539,
    "uid": "5f6e0819d0fb3563bda240e2",
    "telephone": "(023)63530977",
    "overall_rating": 4.7,
    "comment_num": 36,
    "tag": "酒店",
    "type": "hotel",
    "detail_url": "http://api.map.baidu.com/place/detail?uid=5f6e0819d0fb3563bda240e2&output=html&source=placeapi_v3",
    "price": "",
    "business_time": ""
  },
  {
    "name": "汉庭酒店(重庆牛角沱地铁站店)-大堂",
    "address": "重庆市渝中区嘉陵桥西村2号",
    "province": "重庆市",
    "city": "重庆市",
    "area": "渝中区",
    "latitude": 29.566475,
    "longitude": 106.552297,
    "uid": "554d7490dc67066cd72ce2bf",
    "telephone": "",
    "overall_rating": 0,
    "comment_num": 0,
    "tag": "酒店",
    "type": "hotel",
    "detail_url": "http://api.map.baidu.com/place/detail?uid=554d7490dc67066cd72ce2bf&output=html&source=placeapi_v3",
    "price": "",
    "business_time": ""
  },
  {
    "name": "易豪酒店(重庆解放碑地铁站赛格尔店)",
    "address": "解放碑五四路28号赛格尔大厦9楼",
    "province": "重庆市",
    "city": "重庆市",
    "area": "渝中区",
    "latitude": 29.565261,
    "longitude": 106.583407,
    "uid": "3724c5f93b06f0291c3894ea",
    "telephone": "(023)86897788",
    "overall_rating": 3.9,
    "comment_num": 105,
    "tag": "酒店;其他",
    "type": "hotel",
    "detail_url": "http://api.map.baidu.com/place/detail?uid=3724c5f93b06f0291c3894ea&output=html&source=placeapi_v3",
    "price": "",
    "business_time": ""
  },
  {
    "name": "君临精品酒店(重庆大坪地铁站店)",
    "address": "重庆市渝中区大坪正街88号莲花国际5层",
    "province": "重庆市",
    "city": "重庆市",
    "area": "渝中区",
    "latitude": 29.54718,
    "longitude": 106.523022,
    "uid": "df14271c88c3538651e5c58f",
    "telephone": "",
    "overall_rating": 4.5,
    "comment_num": 5,
    "tag": "酒店",
    "type": "hotel",
    "detail_url": "http://api.map.baidu.com/place/detail?uid=df14271c88c3538651e5c58f&output=html&source=placeapi_v3",
    "price": "",
    "business_time": ""
  },
  {
    "name": "斯普兰酒店(两路口地铁站店)-东门",
    "address": "重庆市渝中区中山三路124号附近",
    "province": "重庆市",
    "city": "重庆市",
    "area": "渝中区",
    "latitude": 29.560308,
    "longitude": 106.555325,
    "uid": "1ca231cb7175700bf62310db",
    "telephone": "",
    "overall_rating": 0,
    "comment_num": 0,
    "tag": "出入口;门",
    "type": "life",
    "detail_url": "http://api.map.baidu.com/place/detail?uid=1ca231cb7175700bf62310db&output=html&source=placeapi_v3",
    "price": "",
    "business_time": ""
  },
  {
    "name": "鑫茂酒店(重庆企业天地化龙桥地铁站店)",
    "address": "重庆渝中区化龙桥街道富华路10号15楼1521号",
    "province": "重庆市",
    "city": "重庆市",
    "area": "渝中区",
    "latitude": 29.553591,
    "longitude": 106.523397,
    "uid": "f97256244c0058e9a8f0cdb4",
    "telephone": "17749925963",
    "overall_rating": 4.8,
    "comment_num": 0,
    "tag": "酒店",
    "type": "hotel",
    "detail_url": "http://api.map.baidu.com/place/detail?uid=f97256244c0058e9a8f0cdb4&output=html&source=placeapi_v3",
    "price": "",
    "business_time": ""
  },
  {
    "name": "APEX艾派斯电竞酒店(重庆上清寺牛角沱地铁站店)",
    "address": "中山四路1号渝中大厦26楼",
    "province": "重庆市",
    "city": "重庆市",
    "area": "渝中区",
    "latitude": 29.567452,
    "longitude": 106.553073,
    "uid": "b6d0e147801a4bbd36b06cf0",
    "telephone": "15310491250",
    "overall_rating": 4.6,
    "comment_num": 0,
    "tag": "酒店;其他",
    "type": "hotel",
    "detail_url": "http://api.map.baidu.com/place/detail?uid=b6d0e147801a4bbd36b06cf0&output=html&source=placeapi_v3",
    "price": "",
    "business_time": ""
  },
  {
    "name": "原住Origin酒店(重庆上清寺牛角沱地铁站店)",
    "address": "重庆市中山四路渝中大厦26楼",
    "province": "重庆市",
    "city": "重庆市",
    "area": "渝中区",
    "latitude": 29.56745,
    "longitude": 106.55299,
    "uid": "cfc18b624c34882836b06c76",
    "telephone": "19111363529",
    "overall_rating": 4.3,
    "comment_num": 0,
    "tag": "酒店",
    "type": "hotel",
    "detail_url": "http://api.map.baidu.com/place/detail?uid=cfc18b624c34882836b06c76&output=html&source=placeapi_v3",
    "price": "",
    "business_time": ""
  },
  {
    "name": "琪彩舒心酒店公寓(重庆解放碑较场口地铁站店)",
    "address": "重庆市渝中区中兴路228号熊猫公馆美丽之冠13楼13号",
    "province": "重庆市",
    "city": "重庆市",
    "area": "渝中区",
    "latitude": 29.557039,
    "longitude": 106.576322,
    "uid": "e817b3f907e19c3b843304b3",
    "telephone": "(023)68800060",
    "overall_rating": 4.7,
    "comment_num": 0,
    "tag": "酒店;公寓式酒店",
    "type": "hotel",
    "detail_url": "http://api.map.baidu.com/place/detail?uid=e817b3f907e19c3b843304b3&output=html&source=placeapi_v3",
    "price": "",
    "business_time": ""
  }
]